{
  "controls": [
    {
      "type": "",
      "name": "category",
      "label": "Category",
      "helpText": "Please choose a category",
      "validators": {
        "required": true
      }
    },
    {
      "type": "radio",
      "name": "itemCondition",
      "label": "Item condition",
      "value": "Used",
      "options": {
        "items": [
          {
            "label": "Used",
            "value": "Used"
          },
          {
            "label": "New",
            "value": "New"
          }
        ]
      },
      "validators": {}
    },
    {
      "type": "text",
      "name": "title",
      "label": "Title",
      "value": "Samsung Galaxy A51",
      "validators": {
        "required": true,
        "maxLength": 60,
        "minLength": 5
      }
    },
    {
      "type": "textarea",
      "name": "description",
      "label": "Description",
      "value": "Се продава уред Samsung Galaxy A51. Телефонот не е паѓан и нема гребнатинки на екранот.\n\nКонтакт: 073/123-604 Горан\n\n",
      "validators": {
        "required": true,
        "maxLength": 3000
      }
    },
    {
      "type": "number",
      "name": "price",
      "label": "Price",
      "value": "5500",
      "validators": {
        "required": true
      }
    },
    {
      "type": "radio",
      "name": "currency",
      "label": "Currency",
      "value": "MKD",
      "options": {
        "items": [
          {
            "label": "MKD",
            "value": "MKD"
          },
          {
            "label": "EUR",
            "value": "EUR"
          }
        ]
      },
      "validators": {}
    },
    {
      "type": "toggle",
      "name": "fixedPrice",
      "label": "Fixed price",
      "value": "true",
      "validators": {}
    },
    {
      "type": "select",
      "name": "location",
      "label": "Location",
      "value": "",
      "options": {
        "items": [
          {
            "label": "Skopje",
            "value": "Skopje",
            "lat": "41.9870695865131",
            "lng": "21.4519291484375"
          },
          {
            "label": "Bitola",
            "value": "Bitola",
            "lat": "41.031728",
            "lng": "21.329358"
          },
          {
            "label": "Kumanovo",
            "value": "Kumanovo",
            "lat": "42.132926",
            "lng": "21.715878"
          },
          {
            "label": "Prilep",
            "value": "Prilep",
            "lat": "41.346182",
            "lng": "21.553379"
          },
          {
            "label": "Tetovo",
            "value": "Tetovo",
            "lat": "42.009423",
            "lng": "20.971549"
          },
          {
            "label": "Veles",
            "value": "Veles",
            "lat": "41.715954",
            "lng": "21.770997"
          },
          {
            "label": "Shtip",
            "value": "Shtip",
            "lat": "41.745515",
            "lng": "22.19396"
          },
          {
            "label": "Ohrid",
            "value": "Ohrid",
            "lat": "41.111733",
            "lng": "20.798579"
          },
          {
            "label": "Gostivar",
            "value": "Gostivar",
            "lat": "41.801881",
            "lng": "20.913259"
          },
          {
            "label": "Strumica",
            "value": "Strumica",
            "lat": "41.440569",
            "lng": "22.639528"
          },
          {
            "label": "Kavadarci",
            "value": "Kavadarci",
            "lat": "41.438304",
            "lng": "22.004864"
          },
          {
            "label": "Kochani",
            "value": "Kochani",
            "lat": "41.924335",
            "lng": "22.404964"
          },
          {
            "label": "Kichevo",
            "value": "Kichevo",
            "lat": "41.51282",
            "lng": "20.96083"
          },
          {
            "label": "Struga",
            "value": "Struga",
            "lat": "41.173346",
            "lng": "20.677493"
          },
          {
            "label": "Radovish",
            "value": "Radovish",
            "lat": "41.635743",
            "lng": "22.470056"
          },
          {
            "label": "Gevgelija",
            "value": "Gevgelija",
            "lat": "41.14712",
            "lng": "22.507161"
          },
          {
            "label": "Debar",
            "value": "Debar",
            "lat": "41.516028",
            "lng": "20.533415"
          },
          {
            "label": "Kriva Palanka",
            "value": "Kriva Palanka",
            "lat": "42.205478",
            "lng": "22.333429"
          },
          {
            "label": "Sveti Nikole",
            "value": "Sveti Nikole",
            "lat": "41.865485",
            "lng": "21.940845"
          },
          {
            "label": "Negotino",
            "value": "Negotino",
            "lat": "41.484224",
            "lng": "22.089622"
          },
          {
            "label": "Delchevo",
            "value": "Delchevo",
            "lat": "41.966811",
            "lng": "22.781396"
          },
          {
            "label": "Vinica",
            "value": "Vinica",
            "lat": "41.884235",
            "lng": "22.515181"
          },
          {
            "label": "Resen",
            "value": "Resen",
            "lat": "41.090247",
            "lng": "21.016781"
          },
          {
            "label": "Probishtip",
            "value": "Probishtip",
            "lat": "41.994543",
            "lng": "22.181289"
          },
          {
            "label": "Berovo",
            "value": "Berovo",
            "lat": "41.711096",
            "lng": "22.848172"
          },
          {
            "label": "Kratovo",
            "value": "Kratovo",
            "lat": "42.0768332158365",
            "lng": "22.1770268046875"
          },
          {
            "label": "Krushevo",
            "value": "Krushevo",
            "lat": "41.373181",
            "lng": "21.252891"
          },
          {
            "label": "Makedonski Brod",
            "value": "Makedonski Brod",
            "lat": "41.514916",
            "lng": "21.218902"
          },
          {
            "label": "Valandovo",
            "value": "Valandovo",
            "lat": "41.315781",
            "lng": "22.566826"
          },
          {
            "label": "Demir Hisar",
            "value": "Demir Hisar",
            "lat": "41.221826",
            "lng": "21.207874"
          }
        ]
      },
      "validators": {
        "required": true
      }
    },
    {
      "type": "text",
      "name": "phone",
      "label": "Phone",
      "value": "070/123-456",
      "placeholder": "070/123-456",
      "validators": {
        "required": true,
        "pattern": "^\\d{3}/\\d{3}-\\d{3}$"
      }
    },
    {
      "type": "image",
      "name": "images",
      "helpText": "Please upload images",
      "label": "Upload Images",
      "value": "",
      "validators": {}
    }
  ]
}
