{
  "controls": [
    {
      "type": "radio",
      "name": "itemCondition",
      "label": "Item condition",
      "value": "used",
      "options": {
        "items": [
          {
            "label": "Used",
            "value": "used"
          },
          {
            "label": "New",
            "value": "new"
          }
        ]
      },
      "validators": {}
    },
    {
      "type": "text",
      "name": "title",
      "label": "Title",
      "value": "",
      "validators": {
        "required": true,
        "maxLength": 60,
        "minLength": 5
      }
    },
    {
      "type": "textarea",
      "name": "description",
      "label": "Description",
      "value": "",
      "validators": {
        "required": true,
        "maxLength": 3000
      }
    },
    {
      "type": "number",
      "name": "price",
      "label": "Price",
      "value": "",
      "validators": {
        "required": true
      }
    },
    {
      "type": "radio",
      "name": "currency",
      "label": "Currency",
      "value": "mkd",
      "options": {
        "items": [
          {
            "label": "MKD",
            "value": "mkd"
          },
          {
            "label": "EUR",
            "value": "eur"
          }
        ]
      },
      "validators": {}
    },
    {
      "type": "toggle",
      "name": "fixedPrice",
      "label": "Fixed price",
      "value": "true",
      "validators": {}
    },
    {
      "type": "file",
      "name": "photos",
      "label": "Photos",
      "value": "",
      "validators": {}
    },
    {
      "type": "select",
      "name": "location",
      "label": "Location",
      "value": "",
      "options": [
        {
          "label": "Skopje",
          "value": "1",
          "lat": "41.9870695865131",
          "lng": "21.4519291484375"
        },
        {
          "label": "Bitola",
          "value": "2",
          "lat": "41.031728",
          "lng": "21.329358"
        },
        {
          "label": "Kumanovo",
          "value": "3",
          "lat": "42.132926",
          "lng": "21.715878"
        },
        {
          "label": "Prilep",
          "value": "4",
          "lat": "41.346182",
          "lng": "21.553379"
        },
        {
          "label": "Tetovo",
          "value": "5",
          "lat": "42.009423",
          "lng": "20.971549"
        },
        {
          "label": "Veles",
          "value": "6",
          "lat": "41.715954",
          "lng": "21.770997"
        },
        {
          "label": "Shtip",
          "value": "7",
          "lat": "41.745515",
          "lng": "22.19396"
        },
        {
          "label": "Ohrid",
          "value": "8",
          "lat": "41.111733",
          "lng": "20.798579"
        },
        {
          "label": "Gostivar",
          "value": "9",
          "lat": "41.801881",
          "lng": "20.913259"
        },
        {
          "label": "Strumica",
          "value": "10",
          "lat": "41.440569",
          "lng": "22.639528"
        },
        {
          "label": "Kavadarci",
          "value": "11",
          "lat": "41.438304",
          "lng": "22.004864"
        },
        {
          "label": "Kochani",
          "value": "12",
          "lat": "41.924335",
          "lng": "22.404964"
        },
        {
          "label": "Kichevo",
          "value": "13",
          "lat": "41.51282",
          "lng": "20.96083"
        },
        {
          "label": "Struga",
          "value": "14",
          "lat": "41.173346",
          "lng": "20.677493"
        },
        {
          "label": "Radovish",
          "value": "15",
          "lat": "41.635743",
          "lng": "22.470056"
        },
        {
          "label": "Gevgelija",
          "value": "16",
          "lat": "41.14712",
          "lng": "22.507161"
        },
        {
          "label": "Debar",
          "value": "17",
          "lat": "41.516028",
          "lng": "20.533415"
        },
        {
          "label": "Kriva Palanka",
          "value": "18",
          "lat": "42.205478",
          "lng": "22.333429"
        },
        {
          "label": "Sveti Nikole",
          "value": "19",
          "lat": "41.865485",
          "lng": "21.940845"
        },
        {
          "label": "Negotino",
          "value": "20",
          "lat": "41.484224",
          "lng": "22.089622"
        },
        {
          "label": "Delchevo",
          "value": "21",
          "lat": "41.966811",
          "lng": "22.781396"
        },
        {
          "label": "Vinica",
          "value": "22",
          "lat": "41.884235",
          "lng": "22.515181"
        },
        {
          "label": "Resen",
          "value": "23",
          "lat": "41.090247",
          "lng": "21.016781"
        },
        {
          "label": "Probishtip",
          "value": "24",
          "lat": "41.994543",
          "lng": "22.181289"
        },
        {
          "label": "Berovo",
          "value": "25",
          "lat": "41.711096",
          "lng": "22.848172"
        },
        {
          "label": "Kratovo",
          "value": "26",
          "lat": "42.0768332158365",
          "lng": "22.1770268046875"
        },
        {
          "label": "Krushevo",
          "value": "28",
          "lat": "41.373181",
          "lng": "21.252891"
        },
        {
          "label": "Makedonski Brod",
          "value": "29",
          "lat": "41.514916",
          "lng": "21.218902"
        },
        {
          "label": "Valandovo",
          "value": "30",
          "lat": "41.315781",
          "lng": "22.566826"
        },
        {
          "label": "Demir Hisar",
          "value": "34",
          "lat": "41.221826",
          "lng": "21.207874"
        }
      ],
      "validators": {}
    },
    {
      "type": "select",
      "name": "municipality",
      "label": "Municipality",
      "value": "",
      "options": [
        {
          "label": "Choose Municipality",
          "value": ""
        }
      ],
      "validators": {}
    }
  ]
}
